[
    {
        "type": "COVER",
        "key": "COVER_1",
        "id": "ACCIDENT_COVER",
        "imageUrl": ["../public/images/accident_cover.png"],
        "title": "Accidental Cover",
        "coordinates": [
            -10,
            2.5,
            -124
        ]
    },
    {
        "type": "COVER",
        "key": "COVER_1",
        "id": "ACCIDENT_COVER",
        "imageUrl": ["../public/images/accident_cover.png"],
        "title": "Accidental Cover",
        "coordinates": [
            -53.0,
            1.99,
            -123.98
        ]
    },
    {
        "type": "COVER",
        "key": "COVER_2",
        "id": "FIRE_HAZARD_COVER",
        "imageUrl": ["../public/images/fire_hazard.png"],
        "title": "Fire Guard",
        "coordinates": [
            -71.20452880859375,
            2.0111846923828125,
            -101.02059936523438
        ]
    },
    {
        "type": "COVER",
        "key": "COVER_3",
        "id": "ELECTRONIC_COVER",
        "imageUrl": ["../public/images/electric_cover.png"],
        "title": "Electronic Shield",
        "coordinates": [
            -103.89759826660156,
            2.011425018310547,
            -121.03512573242188
        ]
    },
    {
        "type": "COVER",
        "key": "COVER_4",
        "id": "ENGINE_PROTECTION_COVER",
        "imageUrl": ["../public/images/engine_cover.png"],
        "title": "Engine Protection Cover",
        "coordinates": [
            -69.08338165283203,
            2.014653205871582,
            -149.39869689941406
        ]
    },
    {
        "type": "COVER",
        "key": "COVER_5",
        "id": "HEALTH_SHIELD",
        "imageUrl": ["../public/images/health_cover.png"],
        "title": "Health Shield",
        "coordinates": [
            48.80733,
            1.0204166173,
            -4.05254
        ]
    },
    {
        "type": "COVER",
        "key": "COVER_7",
        "id": "BILL_COVER",
        "imageUrl": ["../public/images/bill_cover.png"],
        "title": "Bill Cover",
        "coordinates": [
            -71.03971099853516,
            2.0114662647247314,
            -92.94075775146484
        ]
    },
    {
        "type": "COVER",
        "key": "COVER_8",
        "id": "TIME_SHIELD",
        "imageUrl": ["../public/images/time_shield.jpeg"],
        "title": "Time Shield",
        "coordinates": [
            -136.68533325,
            7.010874748,
            -31.718971252441406
        ]
    },
    {
        "type": "COVER",
        "key": "COVER_9",
        "id": "COVID_COVER",
        "imageUrl": ["../public/images/covid_cover.png"],
        "title": "Covid protection",
        "coordinates": [
            -13.18533706665,
            0.49726709723472,
            -1.24063909053802
        ]
    },
    {
        "type": "COVER",
        "key": "COVER_11",
        "id": "LIFE_COVER",
        "imageUrl": ["../public/images/life_cover.png"],
        "title": "Platinum Life Plan",
        "coordinates": [
            47.2438812255,
            1.0201334953308105,
            5.93079185485
        ]
    },
    {
        "type": "COVER",
        "key": "COVER_9",
        "id": "LIFE_COVER",
        "imageUrl": ["../public/images/life_cover.png"],
        "title": "Platinum Life Plan",
        "coordinates": [
            -10,
            2.5,
            -120
        ]
    },
    {
        "type": "COVER",
        "key": "COVER_9",
        "id": "COVID_COVER",
        "imageUrl": ["../public/images/covid_cover.png"],
        "title": "Covid protection",
        "coordinates": [
            -10,
            2.5,
            -116
        ]
    }
]
